[
  {
    "id": "550e8400-e29b-41d4-a716-446655440001",
    "name": "シンジョントポッキー",
    "category": "韓国料理",
    "latitude": 35.70036363078972,
    "longitude": 139.70066603789115,
    "reviews": []
  },
  {
    "id": "550e8400-e29b-41d4-a716-446655440002",
    "name": "サゴリヤンコプチャン",
    "category": "韓国料理",
    "latitude": 35.698796680658695,
    "longitude": 139.70045727723632,
    "reviews": []
  },
  {
    "id": "550e8400-e29b-41d4-a716-446655440003",
    "name": "小魏鸭脖",
    "category": "中華料理",
    "latitude": 35.7019660135866,
    "longitude": 139.6992361465545,
    "reviews": []
  },
  {
    "id": "550e8400-e29b-41d4-a716-446655440004",
    "name": "明洞のり巻き",
    "category": "韓国料理",
    "latitude": 35.70134191055304,
    "longitude": 139.7022782055922,
    "reviews": []
  },
  {
    "id": "550e8400-e29b-41d4-a716-446655440005",
    "name": "香港飯店",
    "category": "中華料理",
    "latitude": 35.70170783741076,
    "longitude": 139.7011624066945,
    "reviews": []
  },
  {
    "id": "550e8400-e29b-41d4-a716-446655440006",
    "name": "中央シジャン",
    "category": "韓国料理",
    "latitude": 35.70024312785584,
    "longitude": 139.70309236929063,
    "reviews": []
  },
  {
    "id": "550e8400-e29b-41d4-a716-446655440007",
    "name": "テジョンデ3号店",
    "category": "韓国料理",
    "latitude": 35.7020348528435,
    "longitude": 139.69988469107662,
    "reviews": []
  },
  {
    "id": "550e8400-e29b-41d4-a716-446655440008",
    "name": "人生酒場",
    "category": "韓国料理",
    "latitude": 35.69941044012951,
    "longitude": 139.70217863028407,
    "reviews": []
  }
]

